[
  {
    "id": 1,
    "name": "จุดสำรวจเชียงใหม่",
    "province": "เชียงใหม่",
    "region": "north",
    "regionText": "ภาคเหนือ",
    "phase": "phase1",
    "phaseText": "Phase 1",
    "lat": 18.7883,
    "lng": 98.9853
  },
  {
    "id": 2,
    "name": "จุดสำรวจพิษณุโลก",
    "province": "พิษณุโลก",
    "region": "north",
    "regionText": "ภาคเหนือ",
    "phase": "phase1",
    "phaseText": "Phase 1",
    "lat": 16.8211,
    "lng": 100.2659
  },
  {
    "id": 3,
    "name": "จุดสำรวจขอนแก่น",
    "province": "ขอนแก่น",
    "region": "northeast",
    "regionText": "ภาคอีสาน",
    "phase": "phase1",
    "phaseText": "Phase 1",
    "lat": 16.4322,
    "lng": 102.8236
  },
  {
    "id": 4,
    "name": "จุดสำรวจเชียงราย",
    "province": "เชียงราย",
    "region": "north",
    "regionText": "ภาคเหนือ",
    "phase": "phase2",
    "phaseText": "Phase 2",
    "lat": 19.9105,
    "lng": 99.8406
  },
  {
    "id": 5,
    "name": "จุดสำรวจนครราชสีมา",
    "province": "นครราชสีมา",
    "region": "northeast",
    "regionText": "ภาคอีสาน",
    "phase": "phase2",
    "phaseText": "Phase 2",
    "lat": 14.9799,
    "lng": 102.0977
  },
  {
    "id": 6,
    "name": "จุดสำรวจอุดรธานี",
    "province": "อุดรธานี",
    "region": "northeast",
    "regionText": "ภาคอีสาน",
    "phase": "phase2",
    "phaseText": "Phase 2",
    "lat": 17.4138,
    "lng": 102.787
  }
]